{
"type": "FeatureCollection",
"name": "covid19hotspotsnew",
"crs": { "type": "name", "properties": { "name": "urn:ogc:def:crs:EPSG::3857" } },
"features": [
{ "type": "Feature", "properties": { "Sr.no": 1, "District": "South", "Address": "Entire effected street near Gandhi Park, Malviya Nagar. New Delhi", "X": 77.214158, "Y": 28.529372 }, "geometry": { "type": "Point", "coordinates": [ 77.214158, 28.529372 ] } },
{ "type": "Feature", "properties": { "Sr.no": 2, "District": "South", "Address": "Entire effected street of Gali No 5, 6 &7. L 1 Sangam Vihar. New Delhi.", "X": 77.22721, "Y": 28.494145 }, "geometry": { "type": "Point", "coordinates": [ 77.22721, 28.494145 ] } },
{ "type": "Feature", "properties": { "Sr.no": 3, "District": "South", "Address": "Affected area around H. No. k-176. Deoli Extention. New Delhi", "X": 77.23402029, "Y": 28.50219073 }, "geometry": { "type": "Point", "coordinates": [ 77.23402029, 28.50219073 ] } },
{ "type": "Feature", "properties": { "Sr.no": 4, "District": "South", "Address": "Shop No. J-4149, Khirki Extension, Khirki Village. New Delhi.", "X": 77.218036, "Y": 28.532119 }, "geometry": { "type": "Point", "coordinates": [ 77.218036, 28.532119 ] } },
{ "type": "Feature", "properties": { "Sr.no": 5, "District": "South", "Address": "Jain MohoIla, Pandit Mohakla from Epic Centre 715, Chirag Delhi", "X": 77.229102, "Y": 28.540174 }, "geometry": { "type": "Point", "coordinates": [ 77.229102, 28.540174 ] } },
{ "type": "Feature", "properties": { "Sr.no": 6, "District": "South", "Address": "Boundary Stan from B-4\/200 and cover the whole locality till backside of humayupur lane includes, Ashiana complex & B-4\/206 Saidarjung Enclave, New Delhi", "X": 77.19634108, "Y": 28.56332586 }, "geometry": { "type": "Point", "coordinates": [ 77.19634108, 28.56332586 ] } },
{ "type": "Feature", "properties": { "Sr.no": 7, "District": "South", "Address": "H. No. 50, Haug Rani, New Delhi, from Mother Dairy to back corner of Ra a Rani Mohan School, Haut Rani, New Delhi.", "X": 77.21283852000001, "Y": 28.52960523 }, "geometry": { "type": "Point", "coordinates": [ 77.21283852, 28.52960523 ] } },
{ "type": "Feature", "properties": { "Sr.no": 8, "District": "South", "Address": "Entire effected area around H. No. 859\/20. L-II, Sangam Vihai-, New Delhi", "X": 77.23144261, "Y": 28.49879451 }, "geometry": { "type": "Point", "coordinates": [ 77.23144261, 28.49879451 ] } },
{ "type": "Feature", "properties": { "Sr.no": 9, "District": "South", "Address": "1-1,No. 153\/B. 41h Floor, Savitri Nagar. Malviya Nagar, New Delhi", "X": 77.21969, "Y": 28.540946 }, "geometry": { "type": "Point", "coordinates": [ 77.21969, 28.540946 ] } },
{ "type": "Feature", "properties": { "Sr.no": 10, "District": "South", "Address": "Gall No. 2, 3 & 4 Devil Extension. Delhi", "X": 77.235495, "Y": 28.492921 }, "geometry": { "type": "Point", "coordinates": [ 77.235495, 28.492921 ] } },
{ "type": "Feature", "properties": { "Sr.no": 11, "District": "South", "Address": "F-313, Near Shiva Mandir Lido Sari andÂ  F-274, 2nd Floor of Lade., Sari. New Delhi", "X": 77.1925779, "Y": 28.52371505 }, "geometry": { "type": "Point", "coordinates": [ 77.1925779, 28.52371505 ] } },
{ "type": "Feature", "properties": { "Sr.no": 12, "District": "South", "Address": "F-258, Camp Cola all Lado Sarai. New Delhi", "X": 77.19298779, "Y": 28.52805691 }, "geometry": { "type": "Point", "coordinates": [ 77.19298779, 28.52805691 ] } },
{ "type": "Feature", "properties": { "Sr.no": 13, "District": "South", "Address": "Entire affected area of Samshi TaJab. Mehrauli including A-3, lake of view apartment, Mehrauli. Delhi", "X": 77.17760278, "Y": 28.51580756 }, "geometry": { "type": "Point", "coordinates": [ 77.17760278, 28.51580756 ] } },
{ "type": "Feature", "properties": { "Sr.no": 14, "District": "South", "Address": "Entire affected area including-Nirankari. Gall. Nakshira Gali, Nala. Boring Gali, Ravan Wali Gall, Jameela Masjid Baoli, Dargah Gurudwara wali Gall, Thane wall Gali and Terminal Wall Gall.", "X": 77.181478, "Y": 28.524528 }, "geometry": { "type": "Point", "coordinates": [ 77.181478, 28.524528 ] } },
{ "type": "Feature", "properties": { "Sr.no": 15, "District": "South-West", "Address": "Shahajahanabad society. plot no I. Sector 1. Dwarka.", "X": 77.053229, "Y": 28.594264 }, "geometry": { "type": "Point", "coordinates": [ 77.053229, 28.594264 ] } },
{ "type": "Feature", "properties": { "Sr.no": 16, "District": "South-West", "Address": "Dinpur Village", "X": 76.993331, "Y": 28.590962 }, "geometry": { "type": "Point", "coordinates": [ 76.993331, 28.590962 ] } },
{ "type": "Feature", "properties": { "Sr.no": 17, "District": "South-West", "Address": "Gali No. 5 & 5A, H-2 Block. Benagli Colony, Mahavir Enclave, New Delhi", "X": 77.080139, "Y": 28.596387 }, "geometry": { "type": "Point", "coordinates": [ 77.080139, 28.596387 ] } },
{ "type": "Feature", "properties": { "Sr.no": 18, "District": "South-West", "Address": "Block, Janakpuri, Kothi No. -119", "X": 77.081146, "Y": 28.624833 }, "geometry": { "type": "Point", "coordinates": [ 77.081146, 28.624833 ] } },
{ "type": "Feature", "properties": { "Sr.no": 19, "District": "South-West", "Address": "Plot No.-1294, Sonu Yadav Ka Makkan, Theke Wali Gali, Opposite DC Office Kapashera, Delhi", "X": 77.08175, "Y": 28.52066 }, "geometry": { "type": "Point", "coordinates": [ 77.08175, 28.52066 ] } },
{ "type": "Feature", "properties": { "Sr.no": 20, "District": "South-West", "Address": "RZF-756\/7. Gall no I Band. Raj Nagar II Dwarka New Delhi", "X": 77.0811, "Y": 28.576016 }, "geometry": { "type": "Point", "coordinates": [ 77.0811, 28.576016 ] } },
{ "type": "Feature", "properties": { "Sr.no": 21, "District": "South-East", "Address": "Markaz Masjid and Nizamuddin Basti", "X": 77.24311, "Y": 28.59162 }, "geometry": { "type": "Point", "coordinates": [ 77.24311, 28.59162 ] } },
{ "type": "Feature", "properties": { "Sr.no": 22, "District": "South-East", "Address": "Nizamuddin West (G and D block) areas.", "X": 77.244282, "Y": 28.588095 }, "geometry": { "type": "Point", "coordinates": [ 77.244282, 28.588095 ] } },
{ "type": "Feature", "properties": { "Sr.no": 23, "District": "South-East", "Address": "Area of Street\/Gali No. 18 to 22 of Zakir Nagar and nearby area of Abu Bakar Masjid of Zakir Nagar ( Core) rest of Zakir Nagar as Buffer Zone", "X": 77.280058, "Y": 28.569377 }, "geometry": { "type": "Point", "coordinates": [ 77.280058, 28.569377 ] } },
{ "type": "Feature", "properties": { "Sr.no": 24, "District": "South-East", "Address": "H. No. 811 to 829 and 842 to 835 - Khadda Colony, Jaitpur. Extension . Part-II. Delhi", "X": 77.33622, "Y": 28.512501 }, "geometry": { "type": "Point", "coordinates": [ 77.33622, 28.512501 ] } },
{ "type": "Feature", "properties": { "Sr.no": 25, "District": "South-East", "Address": "H. No. 1144 to 1134 and 618 to 623 - Khadda Colony, Jaitpur. Extension , Part-II, New Delhi", "X": 77.33622, "Y": 28.512501 }, "geometry": { "type": "Point", "coordinates": [ 77.33622, 28.512501 ] } },
{ "type": "Feature", "properties": { "Sr.no": 26, "District": "South-East", "Address": "Gali No. 16. Kachhi Colony, Madanpur Khadar, Extension, Delhi", "X": 77.311484, "Y": 28.53128 }, "geometry": { "type": "Point", "coordinates": [ 77.311484, 28.53128 ] } },
{ "type": "Feature", "properties": { "Sr.no": 27, "District": "South-East", "Address": "MehelaMohalla, MadanpurKhadar, Delhi", "X": 77.299774, "Y": 28.535443 }, "geometry": { "type": "Point", "coordinates": [ 77.299774, 28.535443 ] } },
{ "type": "Feature", "properties": { "Sr.no": 28, "District": "South-East", "Address": "H. No. 53 to 55 & 25. Shera Mohalla, Garhi, East of Kailash. Delhi", "X": 77.249932, "Y": 28.559571 }, "geometry": { "type": "Point", "coordinates": [ 77.249932, 28.559571 ] } },
{ "type": "Feature", "properties": { "Sr.no": 29, "District": "South-East", "Address": "Gali No 1.2 & 3. Block-D, SangamVihar, House No. 112B. Gali Not. New Delhi", "X": 77.245786, "Y": 28.507432 }, "geometry": { "type": "Point", "coordinates": [ 77.245786, 28.507432 ] } },
{ "type": "Feature", "properties": { "Sr.no": 30, "District": "South-East", "Address": "Entire Gali starting from H.No. G-54 to F-107 & Entire Gali starting from H.No. CN-854 to H.No. 137, Chhuriya Mohalla, Tughlakabad Village. Delhi", "X": 77.30154, "Y": 28.53252 }, "geometry": { "type": "Point", "coordinates": [ 77.30154, 28.53252 ] } },
{ "type": "Feature", "properties": { "Sr.no": 31, "District": "South-East", "Address": "Gali No. 6, A Block, Abul Fazal Enclave, Shaheen Bagh, Delhi", "X": 77.29875678000001, "Y": 28.55017545 }, "geometry": { "type": "Point", "coordinates": [ 77.29875678, 28.55017545 ] } },
{ "type": "Feature", "properties": { "Sr.no": 32, "District": "South-East", "Address": "Gali No. 26 & 26B, H.No. 2056 to 2092 & Gali No. 27 & 27B, H.No. 2063 to 2083 , Tughlakabad Extension. Delhi", "X": 77.25702926, "Y": 28.5202199 }, "geometry": { "type": "Point", "coordinates": [ 77.25702926, 28.5202199 ] } },
{ "type": "Feature", "properties": { "Sr.no": 33, "District": "South-East", "Address": "(Whole Gali H. No. 48 to Chaupal), A Block, Khizrabad, New Friends Colony, Delhi", "X": 77.274612, "Y": 28.571592 }, "geometry": { "type": "Point", "coordinates": [ 77.274612, 28.571592 ] } },
{ "type": "Feature", "properties": { "Sr.no": 34, "District": "South-East", "Address": "Gali No. 24 to 28 Tughlakabad Extension, Delhi (Core Area)! Added in Gali", "X": 77.25660726, "Y": 28.52123928 }, "geometry": { "type": "Point", "coordinates": [ 77.25660726, 28.52123928 ] } },
{ "type": "Feature", "properties": { "Sr.no": 35, "District": "South-East", "Address": "No. 26 & 26B. H.No. 2056 to 2092 & Gall No. 27 & 27B. H.No. 2063 to 2083 . Tughlakat, , , Extension. Delhi )", "X": 77.25702926, "Y": 28.5202199 }, "geometry": { "type": "Point", "coordinates": [ 77.25702926, 28.5202199 ] } },
{ "type": "Feature", "properties": { "Sr.no": 36, "District": "South-East", "Address": "Whole Kumhar Gali (H.No. 1751 to 1815) to Chaupal Chowkm Kotla Mubarakpur Delhi", "X": 77.225164, "Y": 28.576075 }, "geometry": { "type": "Point", "coordinates": [ 77.225164, 28.576075 ] } },
{ "type": "Feature", "properties": { "Sr.no": 37, "District": "South-East", "Address": "D-Block, (H.No. 152 to 162) Shaheen Bagh . Delhi", "X": 77.30016383, "Y": 28.54861362 }, "geometry": { "type": "Point", "coordinates": [ 77.30016383, 28.54861362 ] } },
{ "type": "Feature", "properties": { "Sr.no": 38, "District": "North", "Address": "Gali No. 1 to 10 (1 to 1000) C Block Jhangirpuri.", "X": 77.098686, "Y": 28.609748 }, "geometry": { "type": "Point", "coordinates": [ 77.098686, 28.609748 ] } },
{ "type": "Feature", "properties": { "Sr.no": 39, "District": "North", "Address": "1100 WaliGali (H. No. 1181-1200). 1200 WaliGali (H. No. 12381268),_1300 WaliGali (H. No. 1306-1331), H-3 Block, Jhangirpuri. Delhi", "X": 77.170618, "Y": 28.723738 }, "geometry": { "type": "Point", "coordinates": [ 77.170618, 28.723738 ] } },
{ "type": "Feature", "properties": { "Sr.no": 40, "District": "North", "Address": "G.H and I Block, Police Colony, Model Town, Delhi", "X": 77.18952754, "Y": 28.71211309 }, "geometry": { "type": "Point", "coordinates": [ 77.18952754, 28.71211309 ] } },
{ "type": "Feature", "properties": { "Sr.no": 41, "District": "North", "Address": "H.No.716 to 785, H. No. 786 to 860. H. No. 861 to 950 K-Block, Jhangir Puri, Delhi", "X": 77.168966, "Y": 28.733693 }, "geometry": { "type": "Point", "coordinates": [ 77.168966, 28.733693 ] } },
{ "type": "Feature", "properties": { "Sr.no": 42, "District": "North", "Address": "G-Block, Jahangirpuri , Delhi", "X": 77.17502, "Y": 28.725332 }, "geometry": { "type": "Point", "coordinates": [ 77.17502, 28.725332 ] } },
{ "type": "Feature", "properties": { "Sr.no": 43, "District": "North", "Address": "Flat No.-265 to 500 Sanjay Enclave, Jahangirpuri, Delhi", "X": 77.15876387, "Y": 28.73313778 }, "geometry": { "type": "Point", "coordinates": [ 77.15876387, 28.73313778 ] } },
{ "type": "Feature", "properties": { "Sr.no": 44, "District": "North", "Address": "Gali No. 3, 4 & 5 Mains Park, Adarsh Nagar, Delhi", "X": 77.176828, "Y": 28.716748 }, "geometry": { "type": "Point", "coordinates": [ 77.176828, 28.716748 ] } },
{ "type": "Feature", "properties": { "Sr.no": 45, "District": "East", "Address": "3 Galis of Khichirpur including Gali containing H. No. 5\/387 Khichirpur Delhi", "X": 77.315891, "Y": 28.620998 }, "geometry": { "type": "Point", "coordinates": [ 77.315891, 28.620998 ] } },
{ "type": "Feature", "properties": { "Sr.no": 46, "District": "East", "Address": "Gali no. 4, from H. No. J- 3\/115 ( Nagar Dairy) to H. No. J- 3\/108( towards Anarwali Masjid Chowk), KishanKunj Extension, Delhi", "X": 77.272343, "Y": 28.639049 }, "geometry": { "type": "Point", "coordinates": [ 77.272343, 28.639049 ] } },
{ "type": "Feature", "properties": { "Sr.no": 47, "District": "East", "Address": "Gali No. 4, from H. No J- 3\/101 to H. No. J - 3\/107 Krishan Kunj Extension Delhi.", "X": 77.272343, "Y": 28.639049 }, "geometry": { "type": "Point", "coordinates": [ 77.272343, 28.639049 ] } },
{ "type": "Feature", "properties": { "Sr.no": 48, "District": "East", "Address": "H. No. 34\/156 to H. No. 34\/189 (Resettlement Colony), Block-34, Tirlok Puri, Delhi 110091.", "X": 77.303405, "Y": 28.603395 }, "geometry": { "type": "Point", "coordinates": [ 77.303405, 28.603395 ] } },
{ "type": "Feature", "properties": { "Sr.no": 49, "District": "East", "Address": "H. No. 300, Gali No. 3 Krishna Puri, Main Road Mandawali, Delhi to H.No. 739\/16 Gali No. 3 Krishna Puri, Main Road Mandawali, Delhi", "X": 77.292059, "Y": 28.6261 }, "geometry": { "type": "Point", "coordinates": [ 77.292059, 28.6261 ] } },
{ "type": "Feature", "properties": { "Sr.no": 50, "District": "Shahdara", "Address": "E-Pocket, GTB Enclave, Delhi", "X": 77.30910263, "Y": 28.68656697 }, "geometry": { "type": "Point", "coordinates": [ 77.30910263, 28.68656697 ] } },
{ "type": "Feature", "properties": { "Sr.no": 51, "District": "Shahdara", "Address": "F- 70 to 90 block Dilshad Colony", "X": 77.329387, "Y": 28.685105 }, "geometry": { "type": "Point", "coordinates": [ 77.329387, 28.685105 ] } },
{ "type": "Feature", "properties": { "Sr.no": 52, "District": "Shahdara", "Address": "Pratapkhand Admit Colony.", "X": 77.310644, "Y": 28.671881 }, "geometry": { "type": "Point", "coordinates": [ 77.310644, 28.671881 ] } },
{ "type": "Feature", "properties": { "Sr.no": 53, "District": "Shahdara", "Address": "Gali no 3,4 and 5 East Ram Nagar, Shandara", "X": 77.29845, "Y": 28.678008 }, "geometry": { "type": "Point", "coordinates": [ 77.29845, 28.678008 ] } },
{ "type": "Feature", "properties": { "Sr.no": 54, "District": "Shahdara", "Address": "H. No. 15 to 101 Dayanand Vihar, Delhi-92", "X": 77.301629, "Y": 28.646113 }, "geometry": { "type": "Point", "coordinates": [ 77.301629, 28.646113 ] } },
{ "type": "Feature", "properties": { "Sr.no": 55, "District": "Shahdara", "Address": "Gali No. 18, H.No. 701\/23 to 500\/36B, Vijay Park, Matupur. Delhi", "X": 77.27912446000001, "Y": 28.69454637 }, "geometry": { "type": "Point", "coordinates": [ 77.27912446, 28.69454637 ] } },
{ "type": "Feature", "properties": { "Sr.no": 56, "District": "New Delhi", "Address": "Israel Camp, Rangpuri Pahari, New Delhi & its adjoining area of Buffer Zone", "X": 77.129702, "Y": 28.535293 }, "geometry": { "type": "Point", "coordinates": [ 77.129702, 28.535293 ] } },
{ "type": "Feature", "properties": { "Sr.no": 57, "District": "New Delhi", "Address": "Budh Nagar, Inderpuri, New Delhi & its adjoining area of Buffer Zone", "X": 77.14468253, "Y": 28.63499684 }, "geometry": { "type": "Point", "coordinates": [ 77.14468253, 28.63499684 ] } },
{ "type": "Feature", "properties": { "Sr.no": 58, "District": "New Delhi", "Address": "EA BLOCK, INDERPURI", "X": 77.14604077, "Y": 28.62768905 }, "geometry": { "type": "Point", "coordinates": [ 77.14604077, 28.62768905 ] } },
{ "type": "Feature", "properties": { "Sr.no": 59, "District": "New Delhi", "Address": "H. No. P-65 and FL No. 1'-184, Pillanji Village, New Delhi", "X": 77.200935, "Y": 28.578651 }, "geometry": { "type": "Point", "coordinates": [ 77.200935, 28.578651 ] } },
{ "type": "Feature", "properties": { "Sr.no": 60, "District": "Central", "Address": "Sadar Bazaar, Central District.", "X": 77.207117, "Y": 28.660939 }, "geometry": { "type": "Point", "coordinates": [ 77.207117, 28.660939 ] } },
{ "type": "Feature", "properties": { "Sr.no": 61, "District": "Central", "Address": "ChandniMahal, Central District.", "X": 77.23636137, "Y": 28.64373427 }, "geometry": { "type": "Point", "coordinates": [ 77.23636137, 28.64373427 ] } },
{ "type": "Feature", "properties": { "Sr.no": 62, "District": "Central", "Address": "NabiKarim, Central District.", "X": 77.21267371, "Y": 28.65214509 }, "geometry": { "type": "Point", "coordinates": [ 77.21267371, 28.65214509 ] } },
{ "type": "Feature", "properties": { "Sr.no": 63, "District": "Central", "Address": "Bara Hindu Rao Area, Delhi", "X": 77.20109142, "Y": 28.66042468 }, "geometry": { "type": "Point", "coordinates": [ 77.20109142, 28.66042468 ] } },
{ "type": "Feature", "properties": { "Sr.no": 64, "District": "Central", "Address": "NawabGanj Area, Delhi", "X": 77.2093028, "Y": 28.66542725 }, "geometry": { "type": "Point", "coordinates": [ 77.2093028, 28.66542725 ] } },
{ "type": "Feature", "properties": { "Sr.no": 65, "District": "Central", "Address": "Oberoi Apartments", "X": 77.1495, "Y": 28.666523 }, "geometry": { "type": "Point", "coordinates": [ 77.1495, 28.666523 ] } },
{ "type": "Feature", "properties": { "Sr.no": 66, "District": "West", "Address": "In and around area of H. No. A-30, Mansarovar Garden , New Delhi", "X": 77.13568191, "Y": 28.64314433 }, "geometry": { "type": "Point", "coordinates": [ 77.13568191, 28.64314433 ] } },
{ "type": "Feature", "properties": { "Sr.no": 67, "District": "West", "Address": "In and around area of A-280. J.J. Colony, Madipur. Delhi I 1(1063.", "X": 77.118184, "Y": 28.67165 }, "geometry": { "type": "Point", "coordinates": [ 77.118184, 28.67165 ] } },
{ "type": "Feature", "properties": { "Sr.no": 68, "District": "West", "Address": "In and around area of C-105. Hari Nagar. New Delhi", "X": 77.11330894, "Y": 28.62547115 }, "geometry": { "type": "Point", "coordinates": [ 77.11330894, 28.62547115 ] } },
{ "type": "Feature", "properties": { "Sr.no": 69, "District": "West", "Address": "In and around area of C-785. Third Floor. Camp No. 2. Nangloi. Delhi", "X": 77.062817, "Y": 28.666321 }, "geometry": { "type": "Point", "coordinates": [ 77.062817, 28.666321 ] } },
{ "type": "Feature", "properties": { "Sr.no": 70, "District": "West", "Address": "In and around area of RZ-168. K2 Block. Nihal Vihar, Delhi", "X": 77.069741, "Y": 28.665963 }, "geometry": { "type": "Point", "coordinates": [ 77.069741, 28.665963 ] } },
{ "type": "Feature", "properties": { "Sr.no": 71, "District": "West", "Address": "In and around area of G-1, 2nd Floor, Mansarover Garden. Delhi", "X": 77.135834, "Y": 28.644417 }, "geometry": { "type": "Point", "coordinates": [ 77.135834, 28.644417 ] } },
{ "type": "Feature", "properties": { "Sr.no": 72, "District": "West", "Address": "Tilak Vihar area in Tilak Nagar. Delhi", "X": 77.09117733, "Y": 28.64304219 }, "geometry": { "type": "Point", "coordinates": [ 77.09117733, 28.64304219 ] } },
{ "type": "Feature", "properties": { "Sr.no": 73, "District": "North-West", "Address": "Entire AF Block, Shalimar Bagh. Delhi", "X": 77.164198, "Y": 28.706958 }, "geometry": { "type": "Point", "coordinates": [ 77.164198, 28.706958 ] } },
{ "type": "Feature", "properties": { "Sr.no": 74, "District": "North-West", "Address": "Entire Street No. 9, Shalimar Village. Delhi", "X": 77.157177, "Y": 28.724008 }, "geometry": { "type": "Point", "coordinates": [ 77.157177, 28.724008 ] } },
{ "type": "Feature", "properties": { "Sr.no": 75, "District": "North-West", "Address": "Entire Gali No. 3. Shalimar Village. Delhi", "X": 77.1579, "Y": 28.721316 }, "geometry": { "type": "Point", "coordinates": [ 77.1579, 28.721316 ] } },
{ "type": "Feature", "properties": { "Sr.no": 76, "District": "North-East", "Address": "H.No.-62. Gali No-4. B-Block. Shastri Park. Delhi", "X": 77.259496, "Y": 28.670453 }, "geometry": { "type": "Point", "coordinates": [ 77.259496, 28.670453 ] } },
{ "type": "Feature", "properties": { "Sr.no": 77, "District": "North-East", "Address": "E-51. Main Road, Shastri Park. Delhi & E-21, Gali No.-8. Shastri Park. Delhi", "X": 77.184603, "Y": 28.769966 }, "geometry": { "type": "Point", "coordinates": [ 77.184603, 28.769966 ] } },
{ "type": "Feature", "properties": { "Sr.no": 78, "District": "North-East", "Address": "1-606, Gali No. 18, Gautampuri, Delhi", "X": 77.264323, "Y": 28.680806 }, "geometry": { "type": "Point", "coordinates": [ 77.264323, 28.680806 ] } },
{ "type": "Feature", "properties": { "Sr.no": 79, "District": "North-East", "Address": "A-97. 98 & 99 Near Buland Masjid. Shastri Park, Delhi", "X": 77.255131, "Y": 28.670018 }, "geometry": { "type": "Point", "coordinates": [ 77.255131, 28.670018 ] } },
{ "type": "Feature", "properties": { "Sr.no": 80, "District": "North-East", "Address": "Block No. X. from H. No. 303\/6. Gali N. 1 to H.No. 289 Gali No. 3. Yadav Villa, Delhi", "X": 77.245219, "Y": 28.533021 }, "geometry": { "type": "Point", "coordinates": [ 77.245219, 28.533021 ] } }
]
}
